Place_name,Score,review,Link,Addr,Lat,Lng,Phone,Subcategory
홍대입구역 3번출구 대여소,0.0,0,https://place.map.kakao.com/1392930840,서울 마포구 동교동 155-27,37.5583524242937,126.925170949906,,자전거대여소
홍대입구역 8번출구 앞 대여소,0.0,1,https://place.map.kakao.com/1045503255,서울 마포구 양화로18길 3,37.5570312704359,126.924570289339,,자전거대여소
합정역 1번출구 앞 대여소,0.0,0,https://place.map.kakao.com/440025243,서울 마포구 서교동 393-5,37.5506550936101,126.914899770522,,자전거대여소
홍대입구역 6번출구 대여소,0.0,1,https://place.map.kakao.com/1397825222,서울 마포구 동교동 193-4,37.5563687421553,126.929335839575,,자전거대여소
망원역 1번출구 앞 대여소,0.0,0,https://place.map.kakao.com/489542237,서울 마포구 월드컵로 72,37.5556562245487,126.910820624841,,자전거대여소
홍대입구역 2번출구 앞 대여소,5.0,0,https://place.map.kakao.com/157922560,서울 마포구 동교동 156-8,37.5575253317061,126.923937474349,,자전거대여소
합정역 5번출구 앞 대여소,0.0,0,https://place.map.kakao.com/1398468052,서울 마포구 서교동 427,37.5527797667787,126.918257803724,,자전거대여소
신촌역(2호선) 7번출구 앞 대여소,0.0,0,https://place.map.kakao.com/1766752063,서울 마포구 신촌로 94,37.5549944655605,126.935997574268,,자전거대여소
스타벅스(동교동) 앞 대여소,0.0,0,https://place.map.kakao.com/1267979777,서울 마포구 동교동 205-15,37.5568202128576,126.919721049024,,자전거대여소
신한은행 서교동금융센터점 앞 대여소,0.0,0,https://place.map.kakao.com/990711792,서울 마포구 서교동 449-14,37.557481116544,126.918308577518,,자전거대여소
서교동 사거리 대여소,0.0,0,https://place.map.kakao.com/366311841,서울 마포구 양화로 100,37.5527040168222,126.918683968423,,자전거대여소
아만티호텔 앞 대여소,0.0,0,https://place.map.kakao.com/1268475057,서울 마포구 서교동 445-7,37.5568124965421,126.919503760544,,자전거대여소
서교동사거리(신) 대여소,0.0,0,https://place.map.kakao.com/593404048,서울 마포구 서교동 351-1,37.5557804710668,126.920399849341,,자전거대여소
망원역 2번출구 앞 대여소,0.0,0,https://place.map.kakao.com/574657060,서울 마포구 월드컵로 65,37.5548617618262,126.910869330338,,자전거대여소
합정동주민센터 앞 대여소,0.0,0,https://place.map.kakao.com/1397936355,서울 마포구 합정동 473-2,37.5504609553153,126.911865677046,,자전거대여소
합정역 7번출구 앞 대여소,4.0,0,https://place.map.kakao.com/2135602065,서울 마포구 합정동 381-67,37.5486047181951,126.912836085098,,자전거대여소
SK망원동주유소 건너편 대여소,0.0,0,https://place.map.kakao.com/1453867031,서울 마포구 성산동 253-17,37.5588925390049,126.907800786335,,자전거대여소
시석빌딩 앞 대여소,0.0,0,https://place.map.kakao.com/1229410861,서울 마포구 합정동 402,37.5498466462438,126.914178132067,,자전거대여소
상수역 2번출구 앞 대여소,0.0,1,https://place.map.kakao.com/558026093,서울 마포구 상수동 309-5,37.547932448285,126.923581936098,,자전거대여소
망원초록길 입구 대여소,0.0,0,https://place.map.kakao.com/212406140,서울 마포구 망원동 218-7,37.5513532531764,126.902734755,,자전거대여소
망원2빗물펌프장 앞 대여소,0.0,1,https://place.map.kakao.com/1529143551,서울 마포구 합정동 450-47,37.551329290887,126.903068629054,,자전거대여소
마포구청역 대여소,0.0,0,https://place.map.kakao.com/640033439,서울 마포구 망원동 477-3,37.5607732116585,126.905436713142,,자전거대여소
망원정 앞 대여소,0.0,0,https://place.map.kakao.com/950333328,서울 마포구 합정동 457-2,37.5501313513181,126.904986860757,,자전거대여소
하늘채코오롱아파트 건너편 대여소,0.0,0,https://place.map.kakao.com/1744797827,서울 마포구 연남로 30,37.5627107408645,126.921856968358,,자전거대여소
제일빌딩 앞 대여소,0.0,0,https://place.map.kakao.com/602141917,서울 마포구 당인동 12-4,37.5476708089699,126.919926858053,,자전거대여소
마포중앙도서관 대여소,0.0,0,https://place.map.kakao.com/1589647389,서울 마포구 성산로 128,37.5637954434775,126.908201874198,,자전거대여소
극동방송국 앞 대여소,0.0,0,https://place.map.kakao.com/1668986975,서울 마포구 상수동 89-1,37.5494638684358,126.923432127445,,자전거대여소
성산2교 사거리 대여소,0.0,0,https://place.map.kakao.com/878399653,서울 마포구 월드컵북로 132,37.5647535003027,126.912631985307,,자전거대여소
연남동주민센터 앞 대여소,0.0,0,https://place.map.kakao.com/1397283741,서울 마포구 연남동 250-1,37.564578182505,126.922322593866,,자전거대여소
성산2-1 공영주차장 대여소,0.0,0,https://place.map.kakao.com/1397339276,서울 마포구 성산동 199-46,37.564732845172,126.906942872741,,자전거대여소
마포구중앙도서관 정문 앞 대여소,0.0,0,https://place.map.kakao.com/1268039778,서울 마포구 성산동 275-26,37.5642565159666,126.90824409299,,자전거대여소
마스타 빌딩 앞 대여소,0.0,0,https://place.map.kakao.com/1509626723,서울 서대문구 연희로 6,37.5592411826469,126.927066716007,,자전거대여소
코오롱아파트사거리 대여소,0.0,0,https://place.map.kakao.com/271696615,서울 마포구 연남동 573-1,37.5620832571536,126.922358007411,,자전거대여소
상수역새마을금고 대여소,0.0,0,https://place.map.kakao.com/1335332392,서울 마포구 상수동 153-3,37.5476510176057,126.924768722201,,자전거대여소
모래내고가차도 대여소,0.0,0,https://place.map.kakao.com/427471669,서울 서대문구 성산로 255,37.5677454628917,126.918985802478,,자전거대여소
가좌역1 번출구 앞 대여소,0.0,0,https://place.map.kakao.com/1255537593,서울 마포구 성산동 122-10,37.5683124605342,126.91501461169,,자전거대여소
벽산상암스마트큐브 대여소,0.0,1,https://place.map.kakao.com/1403294928,서울 마포구 성산동 593-1,37.5650759483743,126.903910934859,,자전거대여소
가좌역 4번출구 앞 대여소,0.0,0,https://place.map.kakao.com/238822782,서울 서대문구 남가좌동 293-3,37.5692355539835,126.914922441565,,자전거대여소
한강공원 망원나들목 대여소,0.0,0,https://place.map.kakao.com/70850617,서울 마포구 망원동 232-30,37.5547672075671,126.897704902741,,자전거대여소
일진아이윌아파트 옆 대여소,0.0,0,https://place.map.kakao.com/1268529298,서울 서대문구 연희동 222-1,37.5645677642852,126.926889705354,,자전거대여소
연희교차로 인근 대여소,0.0,0,https://place.map.kakao.com/1681163437,서울 서대문구 연희동 413-38,37.5661561973718,126.925985579621,,자전거대여소
마포구청 앞 대여소,0.0,0,https://place.map.kakao.com/1806481198,서울 마포구 월드컵로 212,37.5663128370109,126.901615668932,,자전거대여소
신촌역(2호선) 1번출구 옆 대여소,0.0,0,https://place.map.kakao.com/1800052316,서울 서대문구 창천동 30-35,37.5555132110215,126.936240227166,,자전거대여소
신촌역 4번출구 대여소,1.0,0,https://place.map.kakao.com/358845737,서울 서대문구 창천동 30-16,37.5555016867859,126.936758684436,,자전거대여소
광흥창역 2번출구 앞 대여소,0.0,0,https://place.map.kakao.com/1781628903,서울 마포구 독막로 지하 165,37.5474860706906,126.931939240491,,자전거대여소
서강대역 2번출구 앞 대여소,0.0,2,https://place.map.kakao.com/1644458471,서울 마포구 노고산동 112-5,37.5522607406199,126.935322258958,,자전거대여소
가좌행복주택 앞 대여소,0.0,0,https://place.map.kakao.com/1268388015,서울 마포구 중동 272-1,37.5695399343082,126.911643412461,,자전거대여소
월드컵공원 대여소,0.0,0,https://place.map.kakao.com/1409528248,서울 마포구 성산동 390-1,37.5637600690362,126.89637727448,,자전거대여소
연희 브라운스톤 아파트 앞 대여소,0.0,0,https://place.map.kakao.com/180373263,서울 서대문구 연희동 194-30,37.5652682133376,126.930188909358,,자전거대여소
DMC엘가아파트 앞 대여소,0.0,0,https://place.map.kakao.com/360924341,서울 서대문구 남가좌동 105-4,37.5705400474357,126.919201131001,,자전거대여소
성산2동 주민센터 대여소,0.0,0,https://place.map.kakao.com/271891539,서울 마포구 성산동 148-46,37.5693513960814,126.907003345727,,자전거대여소
광흥창역5번출구 대여소,0.0,0,https://place.map.kakao.com/1267931708,서울 마포구 창전동 243-3,37.5474881451142,126.931320472597,,자전거대여소
신촌동 제1공영주차장 앞 대여소,0.0,0,https://place.map.kakao.com/1409468501,서울 서대문구 창천동 70-59,37.5592175246197,126.934509505893,,자전거대여소
서울시 공공자전거 상암센터 대여소,0.0,0,https://place.map.kakao.com/1398285853,서울 마포구 성산동 390-1,37.5637600690362,126.89637727448,,자전거대여소
마포소방서 앞 대여소,0.0,0,https://place.map.kakao.com/1829834087,서울 마포구 창전로 76,37.5493731987746,126.933177803745,,자전거대여소
여의도 마리나선착장 앞 대여소,0.0,0,https://place.map.kakao.com/2111559031,서울 영등포구 여의도동 8,37.5313295194772,126.924243532498,,자전거대여소
신촌 청년주택 대여소,0.0,0,https://place.map.kakao.com/261151373,서울 마포구 창전동 15-1,37.5502208105167,126.932303523047,,자전거대여소
월드컵경기장역 3번출구 옆 대여소,0.0,0,https://place.map.kakao.com/1115608134,서울 마포구 월드컵로 지하 240,37.569942569034,126.899033325814,,자전거대여소
성산시영아파트 대여소,0.0,0,https://place.map.kakao.com/1819819492,서울 마포구 성산동 450,37.5691985241066,126.902241119531,,자전거대여소
양화한강공원자전거대여소,0.0,0,https://place.map.kakao.com/27265847,서울 영등포구 노들로 237,37.5375654231493,126.904028504082,02-488-8366,자전거대여소
연세대 정문 건너편 대여소,0.0,0,https://place.map.kakao.com/2097863610,서울 서대문구 창천동 76-20,37.5598615962863,126.935233746988,,자전거대여소
서강대 남문 옆 대여소,0.0,0,https://place.map.kakao.com/1766086893,서울 마포구 신수동 1-31,37.5494692007321,126.93891820355,,자전거대여소
서강나루 공원 대여소,0.0,0,https://place.map.kakao.com/1851548574,서울 마포구 창전동 165-5,37.5452727242544,126.931088833903,,자전거대여소
서울 월드컵 경기장 대여소,0.0,1,https://place.map.kakao.com/203505928,서울 마포구 성산동 534-11,37.5669914824131,126.896060844545,,자전거대여소
홈플러스 앞 대여소,0.0,0,https://place.map.kakao.com/1870851249,서울 마포구 성산동 421-23,37.5693858759653,126.899492967377,,자전거대여소
마포구청 청사내 대여소,0.0,0,https://place.map.kakao.com/1394305252,서울 마포구 성산동 370,37.566242380606,126.901942313723,,자전거대여소
당산육갑문 대여소,0.0,0,https://place.map.kakao.com/1467976537,서울 영등포구 당산동6가 281-1,37.534783263635,126.90352372208,,자전거대여소
연희삼거리 대여소,0.0,0,https://place.map.kakao.com/997419616,서울 서대문구 연희동 134-5,37.5680993794969,126.93151741068,,자전거대여소
신촌역(2호선) 6번출구 옆 대여소,0.0,0,https://place.map.kakao.com/1336883896,서울 마포구 노고산동 31-6,37.5549676178191,126.937685679963,,자전거대여소
경의선(노고산동) 대여소,0.0,0,https://place.map.kakao.com/1392312629,서울 마포구 창전동 1-33,37.5534083635739,126.933736883604,,자전거대여소
가좌삼거리 대여소,0.0,0,https://place.map.kakao.com/358209900,서울 서대문구 북가좌동 487-1,37.5708135895334,126.913234130848,,자전거대여소
이화여대 후문 대여소,0.0,0,https://place.map.kakao.com/2012376827,서울 서대문구 신촌동 89-4,37.5601395740277,126.939342974903,,자전거대여소
선유도역 3번출구 앞 대여소,0.0,0,https://place.map.kakao.com/2056506103,서울 영등포구 양평동4가 202-1,37.5380643708059,126.894694026128,,자전거대여소
서강대 정문 건너편 대여소,0.0,0,https://place.map.kakao.com/1456409819,서울 마포구 신수동 85-26,37.5495864541738,126.938289592345,,자전거대여소
마포 신수공원 앞 대여소,0.0,0,https://place.map.kakao.com/1231648754,서울 마포구 현석동 225-2,37.5429794590286,126.934497800092,,자전거대여소
